"Product","Blackbox flight data recorder by Nicholas Sherlock"
"firmwareType",3
"firmware","4.1"
"firmwarePatch",5
"firmwareVersion","4.1.5"
"Firmware revision","Betaflight 4.1.5 (d4e74e39c) STM32F7X2"
"Firmware date","Mar 16 2020 05:21:46"
"Log start datetime","2020-05-01T00:36:08.426+00:00"
"Craft name",""
"frameIntervalI",256
"frameIntervalPNum",1
"frameIntervalPDenom",4
"minthrottle",1070
"maxthrottle",2000
"gyroScale",1.7453292519943295e-8
"motorOutput","138,2047"
"acc_1G",2048
"vbatscale",110
"vbatmincellvoltage",330
"vbatwarningcellvoltage",350
"vbatmaxcellvoltage",430
"vbatref",2
"currentMeterOffset",0
"currentMeterScale",179
"looptime",125
"gyro_sync_denom",1
"pid_process_denom",1
"thrMid",50
"thrExpo",0
"dynThrPID",65
"tpa_breakpoint",1250
"rc_rates","100,100,100"
"rc_expo","0,0,0"
"rates","70,70,70"
"rate_limits","1998,1998,1998"
"rollPID","42,85,35,90"
"pitchPID","46,90,38,95"
"yawPID","30,90,0,90"
"levelPID","50,50,75"
"magPID","40,,"
"d_min","20,22,0"
"d_min_gain",27
"d_min_advance",20
"dterm_filter_type",0
"dterm_lpf_hz",150
"dterm_lpf_dyn_hz","70,170"
"dterm_filter2_type",0
"dterm_lpf2_hz",150
"yaw_lpf_hz",0
"dterm_notch_hz",0
"dterm_notch_cutoff",0
"itermWindupPointPercent",100
"iterm_relax",1
"iterm_relax_type",1
"iterm_relax_cutoff",20
"vbat_pid_compensation",1
"pidAtMinThrottle",1
"anti_gravity_mode",0
"anti_gravity_threshold",250
"anti_gravity_gain",5000
"abs_control_gain",0
"use_integrated_yaw",0
"feedforward_transition",0
"yawRateAccelLimit",0
"rateAccelLimit",0
"pidSumLimit",500
"pidSumLimitYaw",400
"deadband",2
"yaw_deadband",2
"gyro_lpf",0
"gyro_soft_type",0
"gyro_lowpass_hz",200
"gyro_lowpass_dyn_hz","200,500"
"gyro_soft2_type",0
"gyro_lowpass2_hz",250
"gyro_notch_hz","0,0"
"gyro_notch_cutoff","0,0"
"dyn_notch_range",1
"dyn_notch_width_percent",8
"dyn_notch_q",120
"dyn_notch_min_hz",150
"dshot_bidir",0
"gyro_rpm_notch_harmonics",3
"gyro_rpm_notch_q",500
"gyro_rpm_notch_min",100
"dterm_rpm_notch_harmonics",0
"dterm_rpm_notch_q",500
"dterm_rpm_notch_min",100
"acc_lpf_hz",1000
"acc_hardware",0
"baro_hardware",0
"mag_hardware",0
"gyro_cal_on_first_arm",0
"rc_interpolation",2
"rc_interpolation_interval",19
"rc_interpolation_channels",2
"airmode_activate_throttle",25
"serialrx_provider",2
"unsynced_fast_pwm",0
"fast_pwm_protocol",7
"motor_pwm_rate",480
"digitalIdleOffset",450
"rc_smoothing_type",1
"rc_smoothing_debug_axis",0
"rc_smoothing_cutoffs","0,0"
"rc_smoothing_auto_factor",10
"rc_smoothing_filter_type","1,2"
"rc_smoothing_active_cutoffs","58,58"
"rc_smoothing_rx_average",7727
"loopIteration","time","axisP[0]","axisP[1]","axisP[2]","axisI[0]","axisI[1]","axisI[2]","axisD[0]","axisD[1]","axisF[0]","axisF[1]","axisF[2]","rcCommand[0]","rcCommand[1]","rcCommand[2]","rcCommand[3]","setpoint[0]","setpoint[1]","setpoint[2]","setpoint[3]","vbatLatest","amperageLatest","BaroAlt","gyroADC[0]","gyroADC[1]","gyroADC[2]","accSmooth[0]","accSmooth[1]","accSmooth[2]","motor[0]","motor[1]","motor[2]","motor[3]","flightModeFlags","stateFlags","failsafePhase","rxSignalReceived","rxFlightChannelsValid","heading[0]","heading[1]","heading[2]","axisSum[0]","axisSum[1]","axisSum[2]","rcCommands[0]","rcCommands[1]","rcCommands[2]","rcCommands[3]","axisError[0]","axisError[1]","axisError[2]"
0,27654972,0,0,0,0,0,0,0,0,0,0,0,0,0,0,1000,0,0,0,0,2,0,23,0,0,0,-52,-37,2077,139,138,137,138,"","","","","",-0.017812270984235993,0.025026911707149532,4.396484385773716,0,0,0,0,0,0,0,0,0,0,"",""
4,27655479,0,0,0,0,0,0,0,0,0,0,0,0,0,0,1000,0,0,0,0,2,0,23,0,0,0,-52,-37,2077,139,138,137,138,268435457,8,0,1,1,-0.017812270984235993,0.025026911707149532,4.396484385773716,0,0,0,0,0,0,0,0,0,0,"",""
8,27656114,0,0,0,0,0,0,0,0,0,0,0,0,0,0,1000,0,0,0,0,2,0,23,0,0,0,-52,-37,2077,139,139,137,138,268435457,8,0,1,1,-0.017812270984235993,0.025026911707149532,4.396484385773716,0,0,0,0,0,0,0,0,0,0,"",""
12,27656616,0,0,0,0,0,0,0,0,0,0,0,0,0,0,1000,0,0,0,0,2,0,23,0,0,0,-52,-37,2077,139,139,137,138,268435457,8,0,1,1,-0.017812270984235993,0.025026911707149532,4.396484385773716,0,0,0,0,0,0,0,0,0,0,"",""
16,27657120,0,0,0,0,0,0,0,0,0,0,0,0,0,0,1000,0,0,0,0,2,0,23,0,0,0,-52,-37,2077,139,138,137,138,268435457,8,0,1,1,-0.01781227098423599,0.02502691170714953,4.396484385773716,0,0,0,0,0,0,0,0,0,0,"",""
20,27657628,0,0,0,0,0,0,0,0,0,0,0,0,0,0,1000,0,0,0,0,2,0,23,0,0,0,-52,-37,2077,138,138,137,138,268435457,8,0,1,1,-0.017812270984235993,0.025026911707149525,4.396484385773716,0,0,0,0,0,0,0,0,0,0,"",""
24,27658132,0,0,0,0,0,0,0,0,0,0,0,0,0,0,1000,0,0,0,0,2,0,23,0,0,0,-52,-37,2077,138,138,137,138,268435457,8,0,1,1,-0.017812270984235993,0.02502691170714953,4.396484385773716,0,0,0,0,0,0,0,0,0,0,"",""
28,27658633,0,0,0,0,0,0,0,0,0,0,0,0,0,0,1000,0,0,0,0,2,0,23,0,0,0,-52,-37,2077,138,138,137,138,268435457,8,0,1,1,-0.017812270984235993,0.02502691170714953,4.396484385773716,0,0,0,0,0,0,0,0,0,0,"",""
32,27659142,0,0,0,0,0,0,0,0,0,0,0,0,0,0,1000,0,0,0,0,2,0,23,0,0,0,-52,-38,2077,138,138,137,138,268435457,8,0,1,1,-0.017866106843618706,0.025026887679099927,4.396484385773716,0,0,0,0,0,0,0,0,0,0,"",""
36,27659647,0,0,0,0,0,0,0,0,0,0,0,0,0,0,1000,0,0,0,0,2,0,23,0,0,0,-52,-38,2077,138,138,137,138,268435457,8,0,1,1,-0.0179091752774142,0.025026868404570198,4.396484385773716,0,0,0,0,0,0,0,0,0,0,"",""
40,27660155,0,0,0,0,0,0,0,0,0,0,0,0,0,0,1000,0,0,0,0,2,0,23,0,0,0,-52,-38,2077,138,137,138,138,268435457,8,0,1,1,-0.017944412874602654,0.0250268526000813,4.396484385773716,0,0,0,0,0,0,0,0,0,0,"",""
44,27660658,0,0,0,0,0,0,0,0,0,0,0,0,0,0,1000,0,0,0,0,2,0,23,0,0,0,-52,-38,2077,138,137,138,138,268435457,8,0,1,1,-0.017973777355593544,0.025026839406027953,4.396484385773716,0,0,0,0,0,0,0,0,0,0,"",""
48,27661316,0,0,0,0,0,0,0,0,0,0,0,0,0,0,1000,0,0,0,0,2,0,23,0,0,0,-52,-38,2077,138,137,138,138,268435457,8,0,1,1,-0.017998624062106446,0.02502682822505361,4.396484385773716,0,0,0,0,0,0,0,0,0,0,"",""
52,27661961,0,0,0,0,0,0,0,0,0,0,0,0,0,0,1000,0,0,0,0,2,0,23,0,0,0,-52,-38,2077,138,137,138,139,268435457,8,0,1,1,-0.01801992109346629,0.025026818629134737,4.396484385773716,0,0,0,0,0,0,0,0,0,0,"",""
56,27662495,0,0,0,0,0,0,0,0,0,0,0,0,0,0,1000,0,0,0,0,2,0,23,0,0,0,-52,-38,2077,139,137,138,139,268435457,8,0,1,1,-0.01803837838799092,0.025026810303553516,4.396484385773716,0,0,0,0,0,0,0,0,0,0,"",""
60,27663001,0,0,0,0,0,0,0,0,0,0,0,0,0,0,1000,0,0,0,0,2,0,23,0,0,0,-52,-38,2077,139,137,138,139,268435457,8,0,1,1,-0.018054528398652,0.02502680301173407,4.396484385773716,0,0,0,0,0,0,0,0,0,0,"",""
64,27663505,0,0,0,0,0,0,0,0,0,0,0,0,0,0,1000,0,0,0,0,2,0,23,0,0,0,-52,-38,2077,139,137,138,139,268435457,8,0,1,1,-0.01806877829485879,0.025026796572408364,4.396484385773716,0,0,0,0,0,0,0,0,0,0,"",""
68,27664029,0,0,0,0,0,0,0,0,0,0,0,0,0,0,1000,0,0,0,0,2,0,23,0,0,0,-52,-38,2077,139,137,138,139,268435457,8,0,1,1,-0.01808144476358104,0.025026790844346565,4.396484385773716,0,0,0,0,0,0,0,0,0,0,"",""
72,27664533,0,0,0,0,0,0,0,0,0,0,0,0,0,0,1000,0,0,0,0,2,0,23,0,0,0,-52,-38,2077,138,137,138,139,268435457,8,0,1,1,-0.01809277782060386,0.025026785715881426,4.396484385773716,0,0,0,0,0,0,0,0,0,0,"",""
76,27665036,0,0,0,0,0,0,0,0,0,0,0,0,0,0,1000,0,0,0,0,2,0,23,0,0,0,-52,-38,2077,138,137,138,139,268435457,8,0,1,1,-0.01810297747838156,0.025026781097558005,4.396484385773716,0,0,0,0,0,0,0,0,0,0,"",""
80,27665541,0,0,0,0,0,0,0,0,0,0,0,0,0,0,1000,0,0,0,0,2,0,23,0,0,0,-51,-38,2077,138,137,138,139,268435457,8,0,1,1,-0.018112205651631876,0.025003484673752394,4.396484385773716,0,0,0,0,0,0,0,0,0,0,"",""
84,27666045,0,0,0,0,0,0,0,0,0,0,0,0,0,0,1000,0,0,0,0,2,0,23,0,0,0,-51,-38,2077,138,137,138,139,268435457,8,0,1,1,-0.018120594815939764,0.024982306293566264,4.396484385773716,0,0,0,0,0,0,0,0,0,0,"",""
88,27666549,0,0,0,0,0,0,0,0,0,0,0,0,0,0,1000,0,0,0,0,2,0,23,0,0,0,-51,-38,2077,138,137,139,139,268435457,8,0,1,1,-0.01812825440758821,0.02496296969278549,4.396484385773716,0,0,0,0,0,0,0,0,0,0,"",""
92,27667055,0,0,0,0,0,0,0,0,0,0,0,0,0,0,1000,0,0,0,0,2,0,23,0,0,0,-51,-38,2077,138,137,139,139,268435457,8,0,1,1,-0.018135275623426702,0.024945244650853442,4.396484385773716,0,0,0,0,0,0,0,0,0,0,"",""
96,27667558,0,0,0,0,0,0,0,0,0,0,0,0,0,0,1000,0,0,0,0,2,0,23,0,0,0,-51,-38,2076,138,137,139,139,268435457,8,0,1,1,-0.01814209140739,0.024929427178026178,4.396484385773716,0,0,0,0,0,0,0,0,0,0,"",""
100,27668062,0,0,0,0,0,0,0,0,0,0,0,0,0,0,1000,0,0,0,0,2,0,23,0,0,0,-51,-38,2076,138,137,139,139,268435457,8,0,1,1,-0.01814838306378896,0.024914826042316537,4.396484385773716,0,0,0,0,0,0,0,0,0,0,"",""
104,27668568,0,0,0,0,0,0,0,0,0,0,0,0,0,0,1000,0,0,0,0,2,0,23,0,0,0,-51,-38,2076,138,137,139,138,268435457,8,0,1,1,-0.018154208803750807,0.024901306155097756,4.396484385773716,0,0,0,0,0,0,0,0,0,0,"",""
108,27669091,0,0,0,0,0,0,0,0,0,0,0,0,0,0,1000,0,0,0,0,2,0,23,0,0,0,-51,-38,2076,138,137,138,138,268435457,8,0,1,1,-0.01815961852600713,0.024888751717863224,4.396484385773716,0,0,0,0,0,0,0,0,0,0,"",""
112,27669593,0,0,0,0,0,0,0,0,0,0,0,0,0,0,1000,0,0,0,0,2,0,23,0,0,0,-51,-38,2076,138,137,138,138,268435457,8,0,1,1,-0.01816465524948652,0.02487706289771747,4.396484385773716,0,0,0,0,0,0,0,0,0,0,"",""
116,27670095,0,0,0,0,0,0,0,0,0,0,0,0,0,0,1000,0,0,0,0,2,0,23,0,0,0,-51,-38,2076,138,137,138,138,268435457,8,0,1,1,-0.01816935625950057,0.024866153167503437,4.396484385773716,0,0,0,0,0,0,0,0,0,0,"",""
120,27670601,0,0,0,0,0,0,0,0,0,0,0,0,0,0,1000,0,0,0,0,2,0,23,0,0,0,-51,-38,2077,138,137,138,138,268435457,8,0,1,1,-0.018173464702997178,0.024855551656258093,4.396484385773716,0,0,0,0,0,0,0,0,0,0,"",""
124,27671105,0,0,0,0,0,0,0,0,0,0,0,0,0,0,1000,0,0,0,0,2,0,23,0,0,0,-51,-38,2077,138,137,137,138,268435457,8,0,1,1,-0.01817731628879121,0.024845612940401964,4.396484385773716,0,0,0,0,0,0,0,0,0,0,"",""
128,27671608,0,0,0,0,0,0,0,0,0,0,0,0,0,0,1000,0,0,0,0,2,0,23,0,0,0,-51,-38,2077,138,138,137,138,268435457,8,0,1,1,-0.01818093436977117,0.02483627676064529,4.396484385773716,0,0,0,0,0,0,0,0,0,0,"",""
132,27672243,0,0,0,0,0,0,0,0,0,0,0,0,0,0,1000,0,0,0,0,2,0,23,0,0,0,-51,-38,2077,139,138,137,138,268435457,8,0,1,1,-0.018184339551177188,0.02482748994761557,4.396484385773716,0,0,0,0,0,0,0,0,0,0,"",""
136,27672746,0,0,0,0,0,0,0,0,0,0,0,0,0,0,1000,0,0,0,0,2,0,23,0,0,0,-51,-38,2077,139,138,137,138,268435457,8,0,1,1,-0.01818755008315684,0.024819205408930522,4.396484385773716,0,0,0,0,0,0,0,0,0,0,"",""
140,27673378,0,0,0,0,0,0,0,0,0,0,0,0,0,0,1000,0,0,0,0,2,0,23,0,0,0,-52,-38,2077,139,138,137,138,268435457,8,0,1,1,-0.018190582187889447,0.024825139065809004,4.396484385773716,0,0,0,0,0,0,0,0,0,0,"",""
144,27673880,0,0,0,0,0,0,0,0,0,0,0,0,0,0,1000,0,0,0,0,2,0,23,0,0,0,-52,-38,2077,139,138,137,138,268435457,8,0,1,1,-0.018193450333658715,0.024830751862482372,4.396484385773716,0,0,0,0,0,0,0,0,0,0,"",""
148,27674384,0,0,0,0,0,0,0,0,0,0,0,0,0,0,1000,0,0,0,0,2,0,23,0,0,0,-52,-38,2077,140,139,137,138,268435457,8,0,1,1,-0.01819616746564727,0.024836069132221517,4.396484385773716,0,0,0,0,0,0,0,0,0,0,"",""
152,27674889,0,0,0,0,0,0,0,0,0,0,0,0,0,0,1000,0,0,0,0,2,0,23,0,0,0,-52,-38,2077,140,139,137,138,268435457,8,0,1,1,-0.01819874520122149,0.02484111360979334,4.396484385773716,0,0,0,0,0,0,0,0,0,0,"",""
156,27675393,0,0,0,0,0,0,0,0,0,0,0,0,0,0,1000,0,0,0,0,2,0,23,0,0,0,-52,-38,2077,140,139,137,138,268435457,8,0,1,1,-0.018201193995921357,0.02484590575630053,4.396484385773716,0,0,0,0,0,0,0,0,0,0,"",""
160,27675898,0,0,0,0,0,0,0,0,0,0,0,0,0,0,1000,0,0,0,0,2,0,23,0,0,0,-52,-38,2077,139,138,137,138,268435457,8,0,1,1,-0.018203523285157286,0.02485046403648001,4.396484385773716,0,0,0,0,0,0,0,0,0,0,"",""
164,27676401,0,0,0,0,0,0,0,0,0,0,0,0,0,0,1000,0,0,0,0,2,0,23,0,0,0,-52,-38,2077,139,138,137,137,268435457,8,0,1,1,-0.018205741605663062,0.02485480515638419,4.396484385773716,0,0,0,0,0,0,0,0,0,0,"",""
168,27676908,0,0,0,0,0,0,0,0,0,0,0,0,0,0,1000,0,0,0,0,2,0,23,0,0,0,-52,-38,2077,138,138,138,137,268435457,8,0,1,1,-0.018207856700000646,0.02485894426789486,4.396484385773716,0,0,0,0,0,0,0,0,0,0,"",""
172,27677417,0,0,0,0,0,0,0,0,0,0,0,0,0,0,1000,0,0,0,0,2,0,23,0,0,0,-52,-38,2077,138,138,138,137,268435457,8,0,1,1,-0.01820987560681329,0.024862895145346744,4.396484385773716,0,0,0,0,0,0,0,0,0,0,"",""
176,27677942,0,0,0,0,0,0,0,0,0,0,0,0,0,0,1000,0,0,0,0,2,0,23,0,0,0,-52,-38,2077,138,138,138,137,268435457,8,0,1,1,-0.018211804739044123,0.024866670338599493,4.396484385773716,0,0,0,0,0,0,0,0,0,0,"",""
180,27678446,0,0,0,0,0,0,0,0,0,0,0,0,0,0,1000,0,0,0,0,2,0,23,0,0,0,-52,-38,2078,138,138,138,137,268435457,8,0,1,1,-0.018213452120336895,0.024870011313278238,4.396484385773716,0,0,0,0,0,0,0,0,0,0,"",""
184,27678961,0,0,0,0,0,0,0,0,0,0,0,0,0,0,1000,0,0,0,0,2,0,23,0,0,0,-52,-38,2078,138,138,138,137,268435457,8,0,1,1,-0.018215029328629107,0.024873209972889828,4.396484385773716,0,0,0,0,0,0,0,0,0,0,"",""
188,27679465,0,0,0,0,0,0,0,0,0,0,0,0,0,0,1000,0,0,0,0,2,0,23,0,0,0,-52,-38,2078,137,137,138,138,268435457,8,0,1,1,-0.018216540752071676,0.024876275216904015,4.396484385773716,0,0,0,0,0,0,0,0,0,0,"",""
192,27679968,0,0,0,0,0,0,0,0,0,0,0,0,0,0,1000,0,0,0,0,2,0,23,0,0,0,-52,-38,2078,138,137,138,138,268435457,8,0,1,1,-0.018217990420412104,0.02487921521792111,4.396484385773716,0,0,0,0,0,0,0,0,0,0,"",""
196,27680473,0,0,0,0,0,0,0,0,0,0,0,0,0,0,1000,0,0,0,0,2,0,23,0,0,0,-52,-38,2078,138,137,138,138,268435457,8,0,1,1,-0.01821938204085316,0.024882037494396426,4.396484385773716,0,0,0,0,0,0,0,0,0,0,"",""
200,27680976,0,0,0,0,0,0,0,0,0,0,0,0,0,0,1000,0,0,0,0,2,0,23,0,0,0,-52,-38,2078,138,137,138,138,268435457,8,0,1,1,-0.018220719029690795,0.024884748974804503,4.396484385773716,0,0,0,0,0,0,0,0,0,0,"",""
204,27681481,0,0,0,0,0,0,0,0,0,0,0,0,0,0,1000,0,0,0,0,2,0,23,0,0,0,-52,-38,2078,138,137,138,138,268435457,8,0,1,1,-0.018222004540299683,0.024887356054396185,4.396484385773716,0,0,0,0,0,0,0,0,0,0,"",""
208,27681985,0,0,0,0,0,0,0,0,0,0,0,0,0,0,1000,0,0,0,0,2,0,23,0,0,0,-52,-38,2078,138,137,138,138,268435457,8,0,1,1,-0.01822324148794912,0.02488986464552719,4.396484385773716,0,0,0,0,0,0,0,0,0,0,"",""
212,27682645,0,0,0,0,0,0,0,0,0,0,0,0,0,0,1000,0,0,0,0,2,0,23,0,0,0,-52,-38,2078,137,137,138,138,268435457,8,0,1,1,-0.018224432571860228,0.02489228022239196,4.396484385773716,0,0,0,0,0,0,0,0,0,0,"",""
216,27683280,0,0,0,0,0,0,0,0,0,0,0,0,0,0,1000,0,0,0,0,2,0,23,0,0,0,-52,-38,2078,137,137,138,138,268435457,8,0,1,1,-0.01822558029485586,0.024894607860875176,4.396484385773716,0,0,0,0,0,0,0,0,0,0,"",""
220,27683784,0,0,0,0,0,0,0,0,0,0,0,0,0,0,1000,0,0,0,0,2,0,23,0,0,0,-52,-39,2078,138,137,139,138,268435457,8,0,1,1,-0.018235680758368986,0.02489684819309898,4.396484385773716,0,0,0,0,0,0,0,0,0,0,"",""
224,27684293,0,0,0,0,0,0,0,0,0,0,0,0,0,0,1000,0,0,0,0,2,0,23,0,0,0,-52,-39,2078,138,137,139,139,268435457,8,0,1,1,-0.01824542640536601,0.024899009822639918,4.396484385773716,0,0,0,0,0,0,0,0,0,0,"",""
228,27684795,0,0,0,0,0,0,0,0,0,0,0,0,0,0,1000,0,0,0,0,2,0,23,0,0,0,-53,-39,2079,138,137,139,139,268435457,8,0,1,1,-0.018254676804490406,0.02490957405608354,4.396484385773716,0,0,0,0,0,0,0,0,0,0,"",""
232,27685299,0,0,0,0,0,0,0,0,0,0,0,0,0,0,1000,0,0,0,0,2,0,23,0,0,0,-53,-39,2079,138,137,139,139,268435457,8,0,1,1,-0.018263613099886257,0.024919779566337202,4.396484385773716,0,0,0,0,0,0,0,0,0,0,"",""
236,27685804,0,0,0,0,0,0,0,0,0,0,0,0,0,0,1000,0,0,0,0,2,0,23,0,0,0,-53,-39,2079,137,138,139,139,268435457,8,0,1,1,-0.018272251011106338,0.02492964430632478,4.396484385773716,0,0,0,0,0,0,0,0,0,0,"",""
240,27686306,0,0,0,0,0,0,0,0,0,0,0,0,0,0,1000,0,0,0,0,2,0,23,0,0,0,-53,-39,2079,137,138,139,139,268435457,8,0,1,1,-0.01828060522598635,0.024939185050647926,4.396484385773716,0,0,0,0,0,0,0,0,0,0,"",""
244,27686812,0,0,0,0,0,0,0,0,0,0,0,0,0,0,1000,0,0,0,0,2,0,23,0,0,0,-53,-39,2079,137,139,140,139,268435457,8,0,1,1,-0.018288689483921483,0.024948417490697965,4.396484385773716,0,0,0,0,0,0,0,0,0,0,"",""
248,27687316,0,0,0,0,0,0,0,0,0,0,0,0,0,0,1000,0,0,0,0,2,0,23,0,0,0,-53,-39,2079,137,139,140,138,268435457,8,0,1,1,-0.01829651665120504,0.024957356320701368,4.396484385773716,0,0,0,0,0,0,0,0,0,0,"",""
252,27687819,0,0,0,0,0,0,0,0,0,0,0,0,0,0,1000,0,0,0,0,2,0,23,0,0,0,-53,-39,2079,137,139,140,138,268435457,8,0,1,1,-0.018304098789297937,0.024966015315691495,4.396484385773716,0,0,0,0,0,0,0,0,0,0,"",""
256,27688323,0,0,0,0,0,0,0,0,0,0,0,0,0,0,1000,0,0,0,0,2,0,23,0,0,0,-53,-39,2079,138,140,140,139,268435457,8,0,1,1,-0.01831144721679114,0.024974407402276654,4.396484385773716,0,0,0,0,0,0,0,0,0,0,"",""
260,27688827,0,0,0,0,0,0,0,0,0,0,0,0,0,0,1000,0,0,0,0,2,0,23,0,0,0,-52,-39,2080,138,140,140,139,268435457,8,0,1,1,-0.01831843163140845,0.024974663468884818,4.396484385773716,0,0,0,0,0,0,0,0,0,0,"",""
264,27689327,0,0,0,0,0,0,0,0,0,0,0,0,0,0,1000,0,0,0,0,2,0,23,0,0,0,-52,-39,2080,138,139,139,139,268435457,8,0,1,1,-0.01832520707617029,0.024974911872953642,4.396484385773716,0,0,0,0,0,0,0,0,0,0,"",""
268,27689832,0,0,0,0,0,0,0,0,0,0,0,0,0,0,1000,0,0,0,0,2,0,23,0,0,0,-53,-40,2080,138,139,139,139,268435457,8,0,1,1,-0.018339261104931635,0.024982624443035017,4.396484385773716,0,0,0,0,0,0,0,0,0,0,"",""
272,27690337,0,0,0,0,0,0,0,0,0,0,0,0,0,0,1000,0,0,0,0,2,0,23,0,0,0,-53,-40,2080,138,139,139,139,268435457,8,0,1,1,-0.018352906819743567,0.024990112931018105,4.396484385773716,0,0,0,0,0,0,0,0,0,0,"",""
276,27690842,0,0,0,0,0,0,0,0,0,0,0,0,0,0,1000,0,0,0,0,2,0,23,0,0,0,-53,-40,2080,139,138,139,139,268435457,8,0,1,1,-0.018366161741913387,0.024997386952889233,4.396484385773716,0,0,0,0,0,0,0,0,0,0,"",""
280,27691346,0,0,0,0,0,0,0,0,0,0,0,0,0,0,1000,0,0,0,0,2,0,23,0,0,0,-53,-40,2080,139,139,138,139,268435457,8,0,1,1,-0.018379042404402687,0.02500445558219647,4.396484385773716,0,0,0,0,0,0,0,0,0,0,"",""
284,27691850,0,0,0,0,0,0,0,0,0,0,0,0,0,0,1000,0,0,0,0,2,0,23,0,0,0,-53,-40,2080,139,139,138,138,268435457,8,0,1,1,-0.018391564420546815,0.025011327387766458,4.396484385773716,0,0,0,0,0,0,0,0,0,0,"",""
288,27692353,0,0,0,0,0,0,0,0,0,0,0,0,0,0,1000,0,0,0,0,2,0,23,0,0,0,-53,-40,2080,139,139,139,138,268435457,8,0,1,1,-0.018403742547119264,0.02501801046831733,4.396484385773716,0,0,0,0,0,0,0,0,0,0,"",""
292,27692858,0,0,0,0,0,0,0,0,0,0,0,0,0,0,1000,0,0,0,0,2,0,23,0,0,0,-53,-40,2080,139,140,139,138,268435457,8,0,1,1,-0.018415590742276673,0.025024512484261765,4.396484385773716,0,0,0,0,0,0,0,0,0,0,"",""
296,27693545,0,0,0,0,0,0,0,0,0,0,0,0,0,0,1000,0,0,0,0,2,0,23,0,0,0,-53,-40,2080,140,140,139,138,268435457,8,0,1,1,-0.01842712221886272,0.025030840686962687,4.396484385773716,0,0,0,0,0,0,0,0,0,0,"",""
300,27694045,0,0,0,0,0,0,0,0,0,0,0,0,0,0,1000,0,0,0,0,2,0,23,0,0,0,-53,-40,2080,140,140,139,138,268435457,8,0,1,1,-0.01843834949349896,0.02503700194567658,4.396484385773716,0,0,0,0,0,0,0,0,0,0,"",""
304,27694676,0,0,0,0,0,0,0,0,0,0,0,0,0,0,1000,0,0,0,0,2,0,23,0,0,0,-53,-40,2080,140,140,139,138,268435457,8,0,1,1,-0.018449284431845972,0.025043002772394837,4.396484385773716,0,0,0,0,0,0,0,0,0,0,"",""
308,27695177,0,0,0,0,0,0,0,0,0,0,0,0,0,0,1000,0,0,0,0,2,0,23,0,0,0,-53,-40,2080,139,140,139,138,268435457,8,0,1,1,-0.01845993829037895,0.025048849344772008,4.396484385773716,0,0,0,0,0,0,0,0,0,0,"",""
312,27695682,0,0,0,0,0,0,0,0,0,0,0,0,0,0,1000,0,0,0,0,2,0,23,0,0,0,-53,-40,2080,139,139,139,138,268435457,8,0,1,1,-0.018470321754986915,0.025054547527310674,4.396484385773716,0,0,0,0,0,0,0,0,0,0,"",""
316,27696187,0,0,0,0,0,0,0,0,0,0,0,0,0,0,1000,0,0,0,0,2,0,23,0,0,0,-53,-40,2080,139,139,139,138,268435457,8,0,1,1,-0.01848044497667376,0.025060102890955636,4.396484385773716,0,0,0,0,0,0,0,0,0,0,"",""
320,27696687,0,0,0,0,0,0,0,0,0,0,0,0,0,0,1000,0,0,0,0,2,0,23,0,0,0,-53,-40,2080,139,138,139,138,268435457,8,0,1,1,-0.018490317604611936,0.025065520731235073,4.396484385773716,0,0,0,0,0,0,0,0,0,0,"",""
324,27697193,0,0,0,0,0,0,0,0,0,0,0,0,0,0,1000,0,0,0,0,2,0,23,0,0,0,-53,-40,2080,139,138,139,139,268435457,8,0,1,1,-0.01849994881677491,0.02507080608507284,4.396484385773716,0,0,0,0,0,0,0,0,0,0,"",""
328,27697696,0,0,0,0,0,0,0,0,0,0,0,0,0,0,1000,0,0,0,0,2,0,23,0,0,0,-53,-40,2081,139,138,139,140,268435457,8,0,1,1,-0.018509232564680553,0.025075808323496682,4.396484385773716,0,0,0,0,0,0,0,0,0,0,"",""
332,27698198,0,0,0,0,0,0,0,0,0,0,0,0,0,0,1000,0,0,0,0,2,0,23,0,0,0,-53,-40,2081,139,138,139,140,268435457,8,0,1,1,-0.01851829457986791,0.02508069108533454,4.396484385773716,0,0,0,0,0,0,0,0,0,0,"",""
336,27698703,0,0,0,0,0,0,0,0,0,0,0,0,0,0,1000,0,0,0,0,2,0,23,0,0,0,-53,-40,2081,140,138,139,140,268435457,8,0,1,1,-0.018527142700251686,0.025085458594017028,4.396484385773716,0,0,0,0,0,0,0,0,0,0,"",""
340,27699205,0,0,0,0,0,0,0,0,0,0,0,0,0,0,1000,0,0,0,0,2,0,23,0,0,0,-53,-40,2081,140,138,139,140,268435457,8,0,1,1,-0.018535784398638438,0.02509011487623236,4.396484385773716,0,0,0,0,0,0,0,0,0,0,"",""
344,27699708,0,0,0,0,0,0,0,0,0,0,0,0,0,0,1000,0,0,0,0,2,0,23,0,0,0,-53,-40,2081,140,138,139,140,268435457,8,0,1,1,-0.018544226803741293,0.025094663773250668,4.396484385773716,0,0,0,0,0,0,0,0,0,0,"",""
348,27700214,0,0,0,0,0,0,0,0,0,0,0,0,0,0,1000,0,0,0,0,2,0,23,0,0,0,-53,-40,2081,140,138,139,140,268435457,8,0,1,1,-0.018552476719759767,0.025099108951475022,4.396484385773716,0,0,0,0,0,0,0,0,0,0,"",""
352,27700747,0,0,0,0,0,0,0,0,0,0,0,0,0,0,1000,0,0,0,0,2,0,23,0,0,0,-53,-40,2081,140,138,139,140,268435457,8,0,1,1,-0.01856054064463765,0.0251034539122801,4.396484385773716,0,0,0,0,0,0,0,0,0,0,"",""
356,27701252,0,0,0,0,0,0,0,0,0,0,0,0,0,0,1000,0,0,0,0,2,0,23,0,0,0,-53,-40,2081,139,138,139,140,268435457,8,0,1,1,-0.018568424787101915,0.025107702001194027,4.396484385773716,0,0,0,0,0,0,0,0,0,0,"",""
360,27701756,0,0,0,0,0,0,0,0,0,0,0,0,0,0,1000,0,0,0,0,2,0,23,0,0,0,-53,-40,2081,139,138,139,139,268435457,8,0,1,1,-0.01857613508257658,0.025111856416473857,4.396484385773716,0,0,0,0,0,0,0,0,0,0,"",""
364,27702260,0,0,0,0,0,0,0,0,0,0,0,0,0,0,1000,0,0,0,0,2,0,23,0,0,0,-53,-40,2081,139,138,139,139,268435457,8,0,1,1,-0.018583677208057224,0.025115920217120998,4.396484385773716,0,0,0,0,0,0,0,0,0,0,"",""
368,27702764,0,0,0,0,0,0,0,0,0,0,0,0,0,0,1000,0,0,0,0,2,0,23,0,0,0,-53,-40,2081,139,139,139,138,268435457,8,0,1,1,-0.01859105659602454,0.0251198963303788,4.396484385773716,0,0,0,0,0,0,0,0,0,0,"",""
372,27703266,0,0,0,0,0,0,0,0,0,0,0,0,0,0,1000,0,0,0,0,2,0,23,0,0,0,-53,-40,2081,138,139,139,138,268435457,8,0,1,1,-0.018598278447468513,0.025123787558750874,4.396484385773716,0,0,0,0,0,0,0,0,0,0,"",""
376,27703771,0,0,0,0,0,0,0,0,0,0,0,0,0,0,1000,0,0,0,0,2,0,23,0,0,0,-53,-40,2081,138,139,140,139,268435457,8,0,1,1,-0.018605347744088892,0.025127596586575512,4.396484385773716,0,0,0,0,0,0,0,0,0,0,"",""
380,27704274,0,0,0,0,0,0,0,0,0,0,0,0,0,0,1000,0,0,0,0,2,0,23,0,0,0,-53,-40,2081,138,139,140,139,268435457,8,0,1,1,-0.01861226925973215,0.025131325986188707,4.396484385773716,0,0,0,0,0,0,0,0,0,0,"",""
384,27704925,0,0,0,0,0,0,0,0,0,0,0,0,0,0,1000,0,0,0,0,2,0,23,0,0,0,-53,-40,2082,138,139,140,139,268435457,8,0,1,1,-0.0186189476659927,0.025134843428107023,4.396484385773716,0,0,0,0,0,0,0,0,0,0,"",""
388,27705564,0,0,0,0,0,0,0,0,0,0,0,0,0,0,1000,0,0,0,0,2,0,23,0,0,0,-53,-40,2082,138,139,141,139,268435457,8,0,1,1,-0.01862548923417111,0.025138288797247766,4.396484385773716,0,0,0,0,0,0,0,0,0,0,"",""
392,27706065,0,0,0,0,0,0,0,0,0,0,0,0,0,0,1000,0,0,0,0,2,0,23,0,0,0,-53,-40,2082,138,139,141,139,268435457,8,0,1,1,-0.018631898118464222,0.025141664281681998,4.396484385773716,0,0,0,0,0,0,0,0,0,0,"",""
396,27706569,0,0,0,0,0,0,0,0,0,0,0,0,0,0,1000,0,0,0,0,2,0,23,0,0,0,-53,-40,2082,138,139,141,139,268435457,8,0,1,1,-0.01863817830660075,0.025144971981797843,4.396484385773716,0,0,0,0,0,0,0,0,0,0,"",""
400,27707074,0,0,0,0,0,0,0,0,0,0,0,0,0,0,1000,0,0,0,0,2,0,23,0,0,0,-53,-40,2082,138,139,140,139,268435457,8,0,1,1,-0.018644333628097046,0.025148213914649015,4.396484385773716,0,0,0,0,0,0,0,0,0,0,"",""
404,27707581,0,0,0,0,0,0,0,0,0,0,0,0,0,0,1000,0,0,0,0,2,0,23,0,0,0,-53,-40,2082,138,139,140,139,268435457,8,0,1,1,-0.01865036776202635,0.025151392018047204,4.396484385773716,0,0,0,0,0,0,0,0,0,0,"",""
408,27708088,0,0,0,0,0,0,0,0,0,0,0,0,0,0,1000,0,0,0,0,2,0,23,0,0,0,-53,-40,2081,139,138,139,139,268435457,8,0,1,1,-0.01865637896712996,0.025154635801699552,4.396484385773716,0,0,0,0,0,0,0,0,0,0,"",""
412,27708599,0,0,0,0,0,0,0,0,0,0,0,0,0,0,1000,0,0,0,0,2,0,23,0,0,0,-53,-40,2081,139,138,139,139,268435457,8,0,1,1,-0.018662274150430584,0.025157816975938795,4.396484385773716,0,0,0,0,0,0,0,0,0,0,"",""
416,27709101,0,0,0,0,0,0,0,0,0,0,0,0,0,0,1000,0,0,0,0,2,0,23,0,0,0,-53,-40,2081,139,138,139,139,268435457,8,0,1,1,-0.018668056630872325,0.02516093733182259,4.396484385773716,0,0,0,0,0,0,0,0,0,0,"",""
420,27709602,0,0,0,0,0,0,0,0,0,0,0,0,0,0,1000,0,0,0,0,2,0,23,0,0,0,-53,-40,2081,139,138,139,139,268435457,8,0,1,1,-0.018673729602005865,0.025163998592738917,4.396484385773716,0,0,0,0,0,0,0,0,0,0,"",""
424,27710106,0,0,0,0,0,0,0,0,0,0,0,0,0,0,1000,0,0,0,0,2,0,23,0,0,0,-53,-40,2081,139,138,139,139,268435457,8,0,1,1,-0.01867929613785491,0.025167002417572106,4.396484385773716,0,0,0,0,0,0,0,0,0,0,"",""
428,27710610,0,0,0,0,0,0,0,0,0,0,0,0,0,0,1000,0,0,0,0,2,0,23,0,0,0,-53,-40,2081,139,138,139,139,268435457,8,0,1,1,-0.018684759198456392,0.025169950403692656,4.396484385773716,0,0,0,0,0,0,0,0,0,0,"",""
432,27711116,0,0,0,0,0,0,0,0,0,0,0,0,0,0,1000,0,0,0,0,2,0,23,0,0,0,-53,-40,2081,139,138,139,139,268435457,8,0,1,1,-0.01869012163509531,0.025172844089782313,4.396484385773716,0,0,0,0,0,0,0,0,0,0,"",""
436,27711620,0,0,0,0,0,0,0,0,0,0,0,0,0,0,1000,0,0,0,0,2,0,23,0,0,0,-53,-40,2081,138,138,139,139,268435457,8,0,1,1,-0.018695386195253728,0.025175684958504942,4.396484385773716,0,0,0,0,0,0,0,0,0,0,"",""
440,27712124,0,0,0,0,0,0,0,0,0,0,0,0,0,0,1000,0,0,0,0,2,0,23,0,0,0,-52,-40,2081,138,139,139,139,268435457,8,0,1,1,-0.01870055552729194,0.02517373570948979,4.396484385773716,0,0,0,0,0,0,0,0,0,0,"",""
444,27712629,0,0,0,0,0,0,0,0,0,0,0,0,0,0,1000,0,0,0,0,2,0,23,0,0,0,-52,-40,2081,138,139,139,139,268435457,8,0,1,1,-0.018705632184878588,0.025171821405267587,4.396484385773716,0,0,0,0,0,0,0,0,0,0,"",""
448,27713134,0,0,0,0,0,0,0,0,0,0,0,0,0,0,1000,0,0,0,0,2,0,23,0,0,0,-52,-40,2081,138,139,139,139,268435457,8,0,1,1,-0.01871061863118526,0.025169941117071565,4.396484385773716,0,0,0,0,0,0,0,0,0,0,"",""
452,27713641,0,0,0,0,0,0,0,0,0,0,0,0,0,0,1000,0,0,0,0,2,0,23,0,0,0,-52,-40,2081,138,139,140,139,268435457,8,0,1,1,-0.018715517242860105,0.02516809394875881,4.396484385773716,0,0,0,0,0,0,0,0,0,0,"",""
456,27714148,0,0,0,0,0,0,0,0,0,0,0,0,0,0,1000,0,0,0,0,2,0,23,0,0,0,-52,-40,2081,138,139,140,140,268435457,8,0,1,1,-0.01872033031379389,0.025166279035390322,4.396484385773716,0,0,0,0,0,0,0,0,0,0,"",""
460,27714651,0,0,0,0,0,0,0,0,0,0,0,0,0,0,1000,0,0,0,0,2,0,23,0,0,0,-52,-40,2081,138,139,140,140,268435457,8,0,1,1,-0.018725060058691016,0.025164495541884543,4.396484385773716,0,0,0,0,0,0,0,0,0,0,"",""
464,27715153,0,0,0,0,0,0,0,0,0,0,0,0,0,0,1000,0,0,0,0,2,0,23,0,0,0,-52,-39,2082,139,138,139,139,268435457,8,0,1,1,-0.018725104654500974,0.02516263112057352,4.396484385773716,0,0,0,0,0,0,0,0,0,0,"",""
468,27715797,0,0,0,0,0,0,0,0,0,0,0,0,0,0,1000,0,0,0,0,2,0,23,0,0,0,-52,-39,2082,139,138,139,139,268435457,8,0,1,1,-0.018725148490882165,0.025160798448603534,4.396484385773716,0,0,0,0,0,0,0,0,0,0,"",""
472,27716327,0,0,0,0,0,0,0,0,0,0,0,0,0,0,1000,0,0,0,0,2,0,23,0,0,0,-52,-39,2082,139,138,139,139,268435457,8,0,1,1,-0.018725191587010196,0.025158996724306548,4.396484385773716,0,0,0,0,0,0,0,0,0,0,"",""
476,27716960,0,0,0,0,0,0,0,0,0,0,0,0,0,0,1000,0,0,0,0,2,0,23,0,0,0,-52,-39,2081,139,139,138,139,268435457,8,0,1,1,-0.018725316677172553,0.025157336240966485,4.396484385773716,0,0,0,0,0,0,0,0,0,0,"",""
480,27717463,0,0,0,0,0,0,0,0,0,0,0,0,0,0,1000,0,0,0,0,2,0,23,0,0,0,-52,-39,2081,139,139,138,139,268435457,8,0,1,1,-0.018725439690791764,0.02515570332213085,4.396484385773716,0,0,0,0,0,0,0,0,0,0,"",""
484,27717968,0,0,0,0,0,0,0,0,0,0,0,0,0,0,1000,0,0,0,0,2,0,23,0,0,0,-52,-39,2081,140,139,138,139,268435457,8,0,1,1,-0.018725560678982876,0.025154097289290137,4.396484385773716,0,0,0,0,0,0,0,0,0,0,"",""
488,27718472,0,0,0,0,0,0,0,0,0,0,0,0,0,0,1000,0,0,0,0,2,0,23,0,0,0,-52,-39,2081,140,139,138,139,268435457,8,0,1,1,-0.01872567969119699,0.025152517486022336,4.396484385773716,0,0,0,0,0,0,0,0,0,0,"",""
492,27718977,0,0,0,0,0,0,0,0,0,0,0,0,0,0,1000,0,0,0,0,2,0,23,0,0,0,-52,-39,2081,140,139,138,139,268435457,8,0,1,1,-0.01872579677528842,0.02515096327710145,4.396484385773716,0,0,0,0,0,0,0,0,0,0,"",""
496,27719479,0,0,0,0,0,0,0,0,0,0,0,0,0,0,1000,0,0,0,0,2,0,23,0,0,0,-52,-39,2081,140,139,138,139,268435457,8,0,1,1,-0.018725911977578617,0.025149434047648793,4.396484385773716,0,0,0,0,0,0,0,0,0,0,"",""
500,27719982,0,0,0,0,0,0,0,0,0,0,0,0,0,0,1000,0,0,0,0,2,0,23,0,0,0,-51,-39,2081,140,140,138,139,268435457,8,0,1,1,-0.018726025342917053,0.02514370449434317,4.396484385773716,0,0,0,0,0,0,0,0,0,0,"",""
504,27720485,0,0,0,0,0,0,0,0,0,0,0,0,0,0,1000,0,0,0,0,2,0,23,0,0,0,-51,-39,2081,140,140,138,139,268435457,8,0,1,1,-0.01872613691473925,0.025138065584829065,4.396484385773716,0,0,0,0,0,0,0,0,0,0,"",""
508,27720993,0,0,0,0,0,0,0,0,0,0,0,0,0,0,1000,0,0,0,0,2,0,23,0,0,0,-51,-39,2081,140,140,138,139,268435457,8,0,1,1,-0.018726246735122052,0.025132515192593255,4.396484385773716,0,0,0,0,0,0,0,0,0,0,"",""
512,27721500,0,0,0,0,0,0,0,0,0,0,0,0,0,0,1000,0,0,0,0,2,0,23,0,0,0,-51,-39,2081,138,138,137,138,268435457,8,0,1,1,-0.01872635484483633,0.02512705125712314,4.396484385773716,0,0,0,0,0,0,0,0,0,0,"",""
516,27722003,0,0,0,0,0,0,0,0,0,0,0,0,0,0,1000,0,0,0,0,2,0,23,0,0,0,-51,-39,2081,138,138,137,138,268435457,8,0,1,1,-0.01872646128339728,0.025121671781365873,4.396484385773716,0,0,0,0,0,0,0,0,0,0,"",""
520,27722505,0,0,0,0,0,0,0,0,0,0,0,0,0,0,1000,0,0,0,0,2,0,23,0,0,0,-51,-39,2081,138,137,138,138,268435457,8,0,1,1,-0.018726566089112384,0.025116374829303963,4.396484385773716,0,0,0,0,0,0,0,0,0,0,"",""
524,27723008,0,0,0,0,0,0,0,0,0,0,0,0,0,0,1000,0,0,0,0,2,0,23,0,0,0,-51,-38,2081,138,137,138,139,268435457,8,0,1,1,-0.018722615479203168,0.025111160429158653,4.396484385773716,0,0,0,0,0,0,0,0,0,0,"",""
528,27723511,0,0,0,0,0,0,0,0,0,0,0,0,0,0,1000,0,0,0,0,2,0,23,0,0,0,-51,-38,2081,138,137,138,139,268435457,8,0,1,1,-0.018718724568915778,0.025106024824677043,4.396484385773716,0,0,0,0,0,0,0,0,0,0,"",""
532,27724053,0,0,0,0,0,0,0,0,0,0,0,0,0,0,1000,0,0,0,0,2,0,23,0,0,0,-51,-38,2080,138,137,139,139,268435457,8,0,1,1,-0.018714966882886958,0.025101066604002176,4.396484385773716,0,0,0,0,0,0,0,0,0,0,"",""
536,27724557,0,0,0,0,0,0,0,0,0,0,0,0,0,0,1000,0,0,0,0,2,0,23,0,0,0,-51,-38,2080,138,137,139,140,268435457,8,0,1,1,-0.018711265116512457,0.025096182167072625,4.396484385773716,0,0,0,0,0,0,0,0,0,0,"",""
540,27725064,0,0,0,0,0,0,0,0,0,0,0,0,0,0,1000,0,0,0,0,2,0,23,0,0,0,-51,-38,2080,138,137,140,140,268435457,8,0,1,1,-0.018707618035786532,0.025091369885701795,4.396484385773716,0,0,0,0,0,0,0,0,0,0,"",""
544,27725565,0,0,0,0,0,0,0,0,0,0,0,0,0,0,1000,0,0,0,0,2,0,23,0,0,0,-51,-38,2080,138,137,140,140,268435457,8,0,1,1,-0.018704024442746207,0.025086628179258105,4.396484385773716,0,0,0,0,0,0,0,0,0,0,"",""
548,27726226,0,0,0,0,0,0,0,0,0,0,0,0,0,0,1000,0,0,0,0,2,0,23,0,0,0,-51,-38,2080,138,137,140,140,268435457,8,0,1,1,-0.018700483174164912,0.025081955512941293,4.396484385773716,0,0,0,0,0,0,0,0,0,0,"",""
552,27726858,0,0,0,0,0,0,0,0,0,0,0,0,0,0,1000,0,0,0,0,2,0,23,0,0,0,-51,-38,2080,138,137,140,140,268435457,8,0,1,1,-0.018696993100302487,0.02507735039613333,4.396484385773716,0,0,0,0,0,0,0,0,0,0,"",""
556,27727361,0,0,0,0,0,0,0,0,0,0,0,0,0,0,1000,0,0,0,0,2,0,23,0,0,0,-51,-38,2080,138,137,140,140,268435457,8,0,1,1,-0.018693553123708816,0.025072811380819862,4.396484385773716,0,0,0,0,0,0,0,0,0,0,"",""
560,27727864,0,0,0,0,0,0,0,0,0,0,0,0,0,0,1000,0,0,0,0,2,0,23,0,0,0,-51,-38,2080,138,137,140,139,268435457,8,0,1,1,-0.01869016217807837,0.025068337060078962,4.396484385773716,0,0,0,0,0,0,0,0,0,0,"",""
564,27728365,0,0,0,0,0,0,0,0,0,0,0,0,0,0,1000,0,0,0,0,2,0,23,0,0,0,-51,-38,2080,138,137,139,139,268435457,8,0,1,1,-0.01868681922715317,0.02506392606663369,4.396484385773716,0,0,0,0,0,0,0,0,0,0,"",""
568,27728870,0,0,0,0,0,0,0,0,0,0,0,0,0,0,1000,0,0,0,0,2,0,23,0,0,0,-51,-38,2080,138,137,139,138,268435457,8,0,1,1,-0.018683523263671783,0.025059577071465455,4.396484385773716,0,0,0,0,0,0,0,0,0,0,"",""
572,27729478,0,0,0,0,0,0,0,0,0,0,0,0,0,0,1000,0,0,0,0,2,0,23,0,0,0,-51,-38,2080,138,137,138,138,268435457,8,0,1,1,-0.018680273308362146,0.02505528878248517,4.396484385773716,0,0,0,0,0,0,0,0,0,0,"",""
576,27729979,0,0,0,0,0,0,0,0,0,0,0,0,0,0,1000,0,0,0,0,2,0,23,0,0,0,-51,-38,2079,138,138,138,137,268435457,8,0,1,1,-0.01867713806122181,0.02505115331604269,4.396484385773716,0,0,0,0,0,0,0,0,0,0,"",""
580,27730483,0,0,0,0,0,0,0,0,0,0,0,0,0,0,1000,0,0,0,0,2,0,23,0,0,0,-51,-38,2079,138,138,138,137,268435457,8,0,1,1,-0.018674045961879108,0.025047074761503335,4.396484385773716,0,0,0,0,0,0,0,0,0,0,"",""
584,27730987,0,0,0,0,0,0,0,0,0,0,0,0,0,0,1000,0,0,0,0,2,0,23,0,0,0,-51,-38,2079,139,138,138,137,268435457,8,0,1,1,-0.018670996129910345,0.02504305195761138,4.396484385773716,0,0,0,0,0,0,0,0,0,0,"",""
588,27731492,0,0,0,0,0,0,0,0,0,0,0,0,0,0,1000,0,0,0,0,2,0,23,0,0,0,-51,-38,2079,139,138,138,137,268435457,8,0,1,1,-0.01866798770868264,0.025039083774489972,4.396484385773716,0,0,0,0,0,0,0,0,0,0,"",""
592,27732034,0,0,0,0,0,0,0,0,0,0,0,0,0,0,1000,0,0,0,0,2,0,23,0,0,0,-51,-38,2079,139,139,138,137,268435457,8,0,1,1,-0.018665019864555734,0.025035169112588358,4.396484385773716,0,0,0,0,0,0,0,0,0,0,"",""
596,27732542,0,0,0,0,0,0,0,0,0,0,0,0,0,0,1000,0,0,0,0,2,0,23,0,0,0,-51,-38,2079,139,139,138,137,268435457,8,0,1,1,-0.01866209178611571,0.025031306901671206,4.396484385773716,0,0,0,0,0,0,0,0,0,0,"",""
600,27733048,0,0,0,0,0,0,0,0,0,0,0,0,0,0,1000,0,0,0,0,2,0,23,0,0,0,-51,-38,2079,139,138,137,138,268435457,8,0,1,1,-0.018659202683439128,0.025027496099848084,4.396484385773716,0,0,0,0,0,0,0,0,0,0,"",""
604,27733550,0,0,0,0,0,0,0,0,0,0,0,0,0,0,1000,0,0,0,0,2,0,23,0,0,0,-51,-38,2079,138,138,137,138,268435457,8,0,1,1,-0.01865635178738624,0.02502373569264124,4.396484385773716,0,0,0,0,0,0,0,0,0,0,"",""
608,27734054,0,0,0,0,0,0,0,0,0,0,0,0,0,0,1000,0,0,0,0,2,0,23,0,0,0,-51,-38,2079,138,138,137,138,268435457,8,0,1,1,-0.018653538348921927,0.02502002469208998,4.396484385773716,0,0,0,0,0,0,0,0,0,0,"",""
612,27734560,0,0,0,0,0,0,0,0,0,0,0,0,0,0,1000,0,0,0,0,2,0,23,0,0,0,-51,-38,2079,138,138,137,138,268435457,8,0,1,1,-0.018650761638463006,0.025016362135889824,4.396484385773716,0,0,0,0,0,0,0,0,0,0,"",""
616,27735065,0,0,0,0,0,0,0,0,0,0,0,0,0,0,1000,0,0,0,0,2,0,23,0,0,0,-51,-39,2079,138,137,138,138,268435457,8,0,1,1,-0.018651537223866366,0.025012745446777663,4.396484385773716,0,0,0,0,0,0,0,0,0,0,"",""
620,27735569,0,0,0,0,0,0,0,0,0,0,0,0,0,0,1000,0,0,0,0,2,0,23,0,0,0,-51,-39,2079,138,137,138,138,268435457,8,0,1,1,-0.018652302812673795,0.02500917537286764,4.396484385773716,0,0,0,0,0,0,0,0,0,0,"",""
624,27736073,0,0,0,0,0,0,0,0,0,0,0,0,0,0,1000,0,0,0,0,2,0,23,0,0,0,-51,-39,2079,138,137,138,138,268435457,8,0,1,1,-0.018653058595877143,0.025005651023556952,4.396484385773716,0,0,0,0,0,0,0,0,0,0,"",""
628,27736579,0,0,0,0,0,0,0,0,0,0,0,0,0,0,1000,0,0,0,0,2,0,23,0,0,0,-51,-39,2079,138,137,138,138,268435457,8,0,1,1,-0.01865380475963381,0.025002171530785648,4.396484385773716,0,0,0,0,0,0,0,0,0,0,"",""
632,27737224,0,0,0,0,0,0,0,0,0,0,0,0,0,0,1000,0,0,0,0,2,0,23,0,0,0,-51,-39,2079,138,138,137,137,268435457,8,0,1,1,-0.018654541485418768,0.024998736048327874,4.396484385773716,0,0,0,0,0,0,0,0,0,0,"",""
636,27737729,0,0,0,0,0,0,0,0,0,0,0,0,0,0,1000,0,0,0,0,2,0,23,0,0,0,-51,-39,2079,138,138,138,137,268435457,8,0,1,1,-0.018655268950170854,0.02499534375110966,4.396484385773716,0,0,0,0,0,0,0,0,0,0,"",""
640,27738393,0,0,0,0,0,0,0,0,0,0,0,0,0,0,1000,0,0,0,0,2,0,23,0,0,0,-51,-39,2078,138,138,138,137,268435457,8,0,1,1,-0.018656050791740212,0.024992078808892915,4.396484385773716,0,0,0,0,0,0,0,0,0,0,"",""
644,27738899,0,0,0,0,0,0,0,0,0,0,0,0,0,0,1000,0,0,0,0,1,0,23,0,0,0,-51,-39,2078,139,139,138,137,268435457,8,0,1,1,-0.018656822930264393,0.024988854385705084,4.396484385773716,0,0,0,0,0,0,0,0,0,0,"",""
648,27739424,0,0,0,0,0,0,0,0,0,0,0,0,0,0,1000,0,0,0,0,1,0,23,0,0,0,-51,-39,2078,139,139,138,137,268435457,8,0,1,1,-0.018657585544208034,0.02498566973630422,4.396484385773716,0,0,0,0,0,0,0,0,0,0,"",""
652,27739926,0,0,0,0,0,0,0,0,0,0,0,0,0,0,1000,0,0,0,0,1,0,23,0,0,0,-51,-39,2078,139,139,138,137,268435457,8,0,1,1,-0.018658338807685994,0.024982524133612093,4.396484385773716,0,0,0,0,0,0,0,0,0,0,"",""
656,27740430,0,0,0,0,0,0,0,0,0,0,0,0,0,0,1000,0,0,0,0,1,0,23,0,0,0,-51,-39,2078,139,139,138,137,268435457,8,0,1,1,-0.01865908289059512,0.024979416868164142,4.396484385773716,0,0,0,0,0,0,0,0,0,0,"",""
660,27740934,0,0,0,0,0,0,0,0,0,0,0,0,0,0,1000,0,0,0,0,1,0,23,0,0,0,-51,-39,2078,138,138,138,137,268435457,8,0,1,1,-0.018659817958741155,0.024976347247579297,4.396484385773716,0,0,0,0,0,0,0,0,0,0,"",""
664,27741437,0,0,0,0,0,0,0,0,0,0,0,0,0,0,1000,0,0,0,0,1,0,23,0,0,0,-51,-39,2078,138,138,137,137,268435457,8,0,1,1,-0.0186605441739612,0.024973314596048894,4.396484385773716,0,0,0,0,0,0,0,0,0,0,"",""
668,27741941,0,0,0,0,0,0,0,0,0,0,0,0,0,0,1000,0,0,0,0,1,0,23,0,0,0,-51,-39,2078,138,138,137,138,268435457,8,0,1,1,-0.018661261694241697,0.02497031825384375,4.396484385773716,0,0,0,0,0,0,0,0,0,0,"",""
672,27742447,0,0,0,0,0,0,0,0,0,0,0,0,0,0,1000,0,0,0,0,1,0,23,0,0,0,-51,-39,2078,137,137,137,138,268435457,8,0,1,1,-0.018661970673832316,0.024967357576838774,4.396484385773716,0,0,0,0,0,0,0,0,0,0,"",""
676,27742949,0,0,0,0,0,0,0,0,0,0,0,0,0,0,1000,0,0,0,0,1,0,23,0,0,0,-51,-39,2078,137,137,138,138,268435457,8,0,1,1,-0.018662671263355766,0.024964431936054337,4.396484385773716,0,0,0,0,0,0,0,0,0,0,"",""
680,27743453,0,0,0,0,0,0,0,0,0,0,0,0,0,0,1000,0,0,0,0,1,0,23,0,0,0,-51,-39,2078,137,137,138,138,268435457,8,0,1,1,-0.018663363609913785,0.024961540717213734,4.396484385773716,0,0,0,0,0,0,0,0,0,0,"",""
684,27743957,0,0,0,0,0,0,0,0,0,0,0,0,0,0,1000,0,0,0,0,1,0,23,0,0,0,-51,-39,2078,137,137,137,138,268435457,8,0,1,1,-0.018664047857189413,0.024958683320316036,4.396484385773716,0,0,0,0,0,0,0,0,0,0,"",""
688,27744461,0,0,0,0,0,0,0,0,0,0,0,0,0,0,1000,0,0,0,0,1,0,23,0,0,0,-51,-39,2078,137,138,137,138,268435457,8,0,1,1,-0.018664724145545764,0.024955859159223784,4.396484385773716,0,0,0,0,0,0,0,0,0,0,"",""
692,27744965,0,0,0,0,0,0,0,0,0,0,0,0,0,0,1000,0,0,0,0,1,0,23,0,0,0,-51,-39,2078,138,138,137,138,268435457,8,0,1,1,-0.018665392612121325,0.024953067661264896,4.396484385773716,0,0,0,0,0,0,0,0,0,0,"",""
696,27745472,0,0,0,0,0,0,0,0,0,0,0,0,0,0,1000,0,0,0,0,1,0,23,0,0,0,-51,-38,2078,138,138,137,138,268435457,8,0,1,1,-0.018662888879829132,0.024950309740070908,4.396484385773716,0,0,0,0,0,0,0,0,0,0,"",""
700,27745980,0,0,0,0,0,0,0,0,0,0,0,0,0,0,1000,0,0,0,0,1,0,23,0,0,0,-51,-38,2078,138,138,137,138,268435457,8,0,1,1,-0.018660413780482322,0.02494758335822647,4.396484385773716,0,0,0,0,0,0,0,0,0,0,"",""
704,27746481,0,0,0,0,0,0,0,0,0,0,0,0,0,0,1000,0,0,0,0,1,0,23,0,0,0,-51,-38,2078,138,138,137,138,268435457,8,0,1,1,-0.01865796682907305,0.02494488798150177,4.396484385773716,0,0,0,0,0,0,0,0,0,0,"",""
708,27746984,0,0,0,0,0,0,0,0,0,0,0,0,0,0,1000,0,0,0,0,1,0,23,0,0,0,-51,-38,2078,138,138,137,138,268435457,8,0,1,1,-0.018655547551485387,0.024942223087664115,4.396484385773716,0,0,0,0,0,0,0,0,0,0,"",""
712,27747489,0,0,0,0,0,0,0,0,0,0,0,0,0,0,1000,0,0,0,0,1,0,23,0,0,0,-51,-38,2078,138,138,138,137,268435457,8,0,1,1,-0.018653155484191237,0.024939588166142966,4.396484385773716,0,0,0,0,0,0,0,0,0,0,"",""
716,27748125,0,0,0,0,0,0,0,0,0,0,0,0,0,0,1000,0,0,0,0,1,0,23,0,0,0,-51,-38,2078,138,138,138,137,268435457,8,0,1,1,-0.018650790173956436,0.02493698271770624,4.396484385773716,0,0,0,0,0,0,0,0,0,0,"",""
720,27748629,0,0,0,0,0,0,0,0,0,0,0,0,0,0,1000,0,0,0,0,1,0,23,0,0,0,-51,-38,2077,138,138,138,137,268435457,8,0,1,1,-0.018648508514260614,0.024934482877052695,4.396484385773716,0,0,0,0,0,0,0,0,0,0,"",""
724,27749270,0,0,0,0,0,0,0,0,0,0,0,0,0,0,1000,0,0,0,0,1,0,23,0,0,0,-51,-38,2077,138,138,138,137,268435457,8,0,1,1,-0.018646252086698675,0.02493201068089125,4.396484385773716,0,0,0,0,0,0,0,0,0,0,"",""
728,27749771,0,0,0,0,0,0,0,0,0,0,0,0,0,0,1000,0,0,0,0,1,0,23,0,0,0,-51,-38,2077,137,138,139,137,268435457,8,0,1,1,-0.018644020478098537,0.024929565676555073,4.396484385773716,0,0,0,0,0,0,0,0,0,0,"",""
732,27750276,0,0,0,0,0,0,0,0,0,0,0,0,0,0,1000,0,0,0,0,1,0,23,0,0,0,-52,-38,2077,138,137,139,138,268435457,8,0,1,1,-0.01864181328425948,0.024930177433006705,4.396484385773716,0,0,0,0,0,0,0,0,0,0,"",""
736,27750779,0,0,0,0,0,0,0,0,0,0,0,0,0,0,1000,0,0,0,0,1,0,23,0,0,0,-52,-38,2077,138,137,139,138,268435457,8,0,1,1,-0.018639630109709947,0.02493078253201883,4.396484385773716,0,0,0,0,0,0,0,0,0,0,"",""
740,27751282,0,0,0,0,0,0,0,0,0,0,0,0,0,0,1000,0,0,0,0,1,0,23,0,0,0,-52,-38,2077,138,137,139,138,268435457,8,0,1,1,-0.01863747056747317,0.024931381080852254,4.396484385773716,0,0,0,0,0,0,0,0,0,0,"",""
744,27751785,0,0,0,0,0,0,0,0,0,0,0,0,0,0,1000,0,0,0,0,1,0,23,0,0,0,-52,-38,2077,138,137,139,138,268435457,8,0,1,1,-0.01863533427884029,0.02493197318447606,4.396484385773716,0,0,0,0,0,0,0,0,0,0,"",""
748,27752289,0,0,0,0,0,0,0,0,0,0,0,0,0,0,1000,0,0,0,0,1,0,23,0,0,0,-52,-38,2077,138,137,139,138,268435457,8,0,1,1,-0.018633220873150735,0.02493255894562849,4.396484385773716,0,0,0,0,0,0,0,0,0,0,"",""
752,27752794,0,0,0,0,0,0,0,0,0,0,0,0,0,0,1000,0,0,0,0,1,0,23,0,0,0,-52,-38,2077,138,137,138,138,268435457,8,0,1,1,-0.01863112998757952,0.02493313846487591,4.396484385773716,0,0,0,0,0,0,0,0,0,0,"",""
756,27753297,0,0,0,0,0,0,0,0,0,0,0,0,0,0,1000,0,0,0,0,1,0,23,0,0,0,-52,-38,2077,138,137,138,138,268435457,8,0,1,1,-0.018629061266931313,0.02493371184066987,4.396484385773716,0,0,0,0,0,0,0,0,0,0,"",""
760,27753800,0,0,0,0,0,0,0,0,0,0,0,0,0,0,1000,0,0,0,0,1,0,23,0,0,0,-52,-38,2077,138,137,138,138,268435457,8,0,1,1,-0.0186270143634409,0.02493427916940246,4.396484385773716,0,0,0,0,0,0,0,0,0,0,"",""
764,27754307,0,0,0,0,0,0,0,0,0,0,0,0,0,0,1000,0,0,0,0,1,0,23,0,0,0,-52,-38,2078,138,137,138,138,268435457,8,0,1,1,-0.01862493447832336,0.024934767676250667,4.396484385773716,0,0,0,0,0,0,0,0,0,0,"",""
768,27754838,0,0,0,0,0,0,0,0,0,0,0,0,0,0,1000,0,0,0,0,1,0,23,0,0,0,-52,-38,2078,139,137,138,138,268435457,8,0,1,1,-0.018622876316810397,0.024935251080713827,4.396484385773716,0,0,0,0,0,0,0,0,0,0,"",""
772,27755341,0,0,0,0,0,0,0,0,0,0,0,0,0,0,1000,0,0,0,0,1,0,23,0,0,0,-52,-38,2078,139,137,138,138,268435457,8,0,1,1,-0.018620839543137528,0.024935729461657282,4.396484385773716,0,0,0,0,0,0,0,0,0,0,"",""
776,27755846,0,0,0,0,0,0,0,0,0,0,0,0,0,0,1000,0,0,0,0,1,0,23,0,0,0,-52,-38,2078,139,137,138,138,268435457,8,0,1,1,-0.01861882382842384,0.024936202896329526,4.396484385773716,0,0,0,0,0,0,0,0,0,0,"",""
780,27756354,0,0,0,0,0,0,0,0,0,0,0,0,0,0,1000,0,0,0,0,1,0,23,0,0,0,-52,-38,2078,139,138,137,138,268435457,8,0,1,1,-0.018616828850496474,0.024936671460403376,4.396484385773716,0,0,0,0,0,0,0,0,0,0,"",""
784,27756860,0,0,0,0,0,0,0,0,0,0,0,0,0,0,1000,0,0,0,0,1,0,23,0,0,0,-52,-38,2078,139,138,137,138,268435457,8,0,1,1,-0.018614854293720475,0.024937135228016,4.396484385773716,0,0,0,0,0,0,0,0,0,0,"",""
788,27757366,0,0,0,0,0,0,0,0,0,0,0,0,0,0,1000,0,0,0,0,1,0,23,0,0,0,-52,-37,2078,139,138,137,138,268435457,8,0,1,1,-0.018610051367185878,0.024937595593465003,4.396484385773716,0,0,0,0,0,0,0,0,0,0,"",""
792,27757872,0,0,0,0,0,0,0,0,0,0,0,0,0,0,1000,0,0,0,0,1,0,23,0,0,0,-52,-37,2078,139,138,137,138,268435457,8,0,1,1,-0.018605297119140107,0.02493805129245406,4.396484385773716,0,0,0,0,0,0,0,0,0,0,"",""
796,27758508,0,0,0,0,0,0,0,0,0,0,0,0,0,0,1000,0,0,0,0,1,0,23,0,0,0,-52,-37,2077,139,138,137,138,268435457,8,0,1,1,-0.01860064336247591,0.024938572803597837,4.396484385773716,0,0,0,0,0,0,0,0,0,0,"",""
800,27759011,0,0,0,0,0,0,0,0,0,0,0,0,0,0,1000,0,0,0,0,2,0,23,0,0,0,-52,-37,2077,139,137,138,138,268435457,8,0,1,1,-0.018596036285946627,0.024939089083108473,4.396484385773716,0,0,0,0,0,0,0,0,0,0,"",""
804,27759665,0,0,0,0,0,0,0,0,0,0,0,0,0,0,1000,0,0,0,0,2,0,23,0,0,0,-52,-37,2077,138,137,138,138,268435457,8,0,1,1,-0.01859147519700302,0.024939600208610985,4.396484385773716,0,0,0,0,0,0,0,0,0,0,"",""
808,27760167,0,0,0,0,0,0,0,0,0,0,0,0,0,0,1000,0,0,0,0,2,0,23,0,0,0,-52,-37,2077,138,137,138,138,268435457,8,0,1,1,-0.018586959416726882,0.02494010625620237,4.396484385773716,0,0,0,0,0,0,0,0,0,0,"",""
812,27760675,0,0,0,0,0,0,0,0,0,0,0,0,0,0,1000,0,0,0,0,2,0,23,0,0,0,-52,-37,2077,138,138,137,138,268435457,8,0,1,1,-0.018582488279497295,0.024940607300489023,4.396484385773716,0,0,0,0,0,0,0,0,0,0,"",""
816,27761178,0,0,0,0,0,0,0,0,0,0,0,0,0,0,1000,0,0,0,0,2,0,23,0,0,0,-52,-37,2077,138,138,137,138,268435457,8,0,1,1,-0.018578061132666693,0.02494110341462309,4.396484385773716,0,0,0,0,0,0,0,0,0,0,"",""
820,27761681,0,0,0,0,0,0,0,0,0,0,0,0,0,0,1000,0,0,0,0,2,0,23,0,0,0,-52,-37,2077,138,137,137,138,268435457,8,0,1,1,-0.018573677336246295,0.024941594670337675,4.396484385773716,0,0,0,0,0,0,0,0,0,0,"",""
824,27762185,0,0,0,0,0,0,0,0,0,0,0,0,0,0,1000,0,0,0,0,2,0,23,0,0,0,-52,-37,2077,138,137,138,138,268435457,8,0,1,1,-0.018569336262600683,0.024942081137981145,4.396484385773716,0,0,0,0,0,0,0,0,0,0,"",""
828,27762690,0,0,0,0,0,0,0,0,0,0,0,0,0,0,1000,0,0,0,0,2,0,23,0,0,0,-52,-37,2077,138,137,138,138,268435457,8,0,1,1,-0.01856503729615113,0.024942562886550335,4.396484385773716,0,0,0,0,0,0,0,0,0,0,"",""
832,27763192,0,0,0,0,0,0,0,0,0,0,0,0,0,0,1000,0,0,0,0,2,0,23,0,0,0,-52,-37,2077,138,137,138,138,268435457,8,0,1,1,-0.018560779833087536,0.024943039983722878,4.396484385773716,0,0,0,0,0,0,0,0,0,0,"",""
836,27763698,0,0,0,0,0,0,0,0,0,0,0,0,0,0,1000,0,0,0,0,2,0,23,0,0,0,-52,-37,2077,137,137,138,138,268435457,8,0,1,1,-0.018556563281088453,0.024943512495888585,4.396484385773716,0,0,0,0,0,0,0,0,0,0,"",""
840,27764200,0,0,0,0,0,0,0,0,0,0,0,0,0,0,1000,0,0,0,0,2,0,23,0,0,0,-52,-37,2077,137,138,138,138,268435457,8,0,1,1,-0.01855238705904917,0.024943980488179893,4.396484385773716,0,0,0,0,0,0,0,0,0,0,"",""
844,27764702,0,0,0,0,0,0,0,0,0,0,0,0,0,0,1000,0,0,0,0,2,0,23,0,0,0,-52,-38,2077,137,138,138,138,268435457,8,0,1,1,-0.018550940577351793,0.024944442780195974,4.396484385773716,0,0,0,0,0,0,0,0,0,0,"",""
848,27765205,0,0,0,0,0,0,0,0,0,0,0,0,0,0,1000,0,0,0,0,2,0,23,0,0,0,-52,-38,2077,137,138,138,138,268435457,8,0,1,1,-0.01854950780378847,0.024944900691063962,4.396484385773716,0,0,0,0,0,0,0,0,0,0,"",""
852,27765709,0,0,0,0,0,0,0,0,0,0,0,0,0,0,1000,0,0,0,0,2,0,23,0,0,0,-52,-38,2077,137,138,138,138,268435457,8,0,1,1,-0.018548088546371314,0.024945354282144467,4.396484385773716,0,0,0,0,0,0,0,0,0,0,"",""
856,27766215,0,0,0,0,0,0,0,0,0,0,0,0,0,0,1000,0,0,0,0,2,0,23,0,0,0,-52,-38,2077,137,138,138,138,268435457,8,0,1,1,-0.018546682616680573,0.024945803613657683,4.396484385773716,0,0,0,0,0,0,0,0,0,0,"",""
860,27766721,0,0,0,0,0,0,0,0,0,0,0,0,0,0,1000,0,0,0,0,2,0,23,0,0,0,-52,-38,2077,137,138,138,138,268435457,8,0,1,1,-0.01854528982978208,0.024946248744709756,4.396484385773716,0,0,0,0,0,0,0,0,0,0,"",""
864,27767224,0,0,0,0,0,0,0,0,0,0,0,0,0,0,1000,0,0,0,0,2,0,23,0,0,0,-52,-38,2077,137,138,138,138,268435457,8,0,1,1,-0.018543910004147058,0.024946689733318463,4.396484385773716,0,0,0,0,0,0,0,0,0,0,"",""
868,27767730,0,0,0,0,0,0,0,0,0,0,0,0,0,0,1000,0,0,0,0,2,0,23,0,0,0,-51,-38,2077,138,137,138,138,268435457,8,0,1,1,-0.018542542961574073,0.024944499481172975,4.396484385773716,0,0,0,0,0,0,0,0,0,0,"",""
872,27768235,0,0,0,0,0,0,0,0,0,0,0,0,0,0,1000,0,0,0,0,2,0,23,0,0,0,-51,-38,2077,138,137,138,138,268435457,8,0,1,1,-0.018541188527113162,0.02494232942924619,4.396484385773716,0,0,0,0,0,0,0,0,0,0,"",""
876,27768743,0,0,0,0,0,0,0,0,0,0,0,0,0,0,1000,0,0,0,0,2,0,23,0,0,0,-51,-38,2077,138,137,138,138,268435457,8,0,1,1,-0.018539846528991984,0.024940179302335216,4.396484385773716,0,0,0,0,0,0,0,0,0,0,"",""
880,27769399,0,0,0,0,0,0,0,0,0,0,0,0,0,0,1000,0,0,0,0,2,0,23,0,0,0,-51,-38,2077,138,137,138,138,268435457,8,0,1,1,-0.018538516798544027,0.024938048830213007,4.396484385773716,0,0,0,0,0,0,0,0,0,0,"",""
884,27769904,0,0,0,0,0,0,0,0,0,0,0,0,0,0,1000,0,0,0,0,2,0,23,0,0,0,-51,-38,2077,139,137,139,139,268435457,8,0,1,1,-0.018537199170138702,0.024935937747516443,4.396484385773716,0,0,0,0,0,0,0,0,0,0,"",""
888,27770549,0,0,0,0,0,0,0,0,0,0,0,0,0,0,1000,0,0,0,0,2,0,23,0,0,0,-51,-38,2077,139,137,139,139,268435457,8,0,1,1,-0.01853589348111337,0.024933845793637385,4.396484385773716,0,0,0,0,0,0,0,0,0,0,"",""
892,27771053,0,0,0,0,0,0,0,0,0,0,0,0,0,0,1000,0,0,0,0,2,0,23,0,0,0,-51,-38,2077,139,137,138,139,268435457,8,0,1,1,-0.018534599571707132,0.02493177271261663,4.396484385773716,0,0,0,0,0,0,0,0,0,0,"",""
896,27771558,0,0,0,0,0,0,0,0,0,0,0,0,0,0,1000,0,0,0,0,2,0,23,0,0,0,-51,-38,2077,139,137,138,139,268435457,8,0,1,1,-0.01853331728499641,0.024929718253040706,4.396484385773716,0,0,0,0,0,0,0,0,0,0,"",""
900,27772063,0,0,0,0,0,0,0,0,0,0,0,0,0,0,1000,0,0,0,0,2,0,23,0,0,0,-51,-38,2077,139,137,138,139,268435457,8,0,1,1,-0.018532046466832267,0.024927682167941407,4.396484385773716,0,0,0,0,0,0,0,0,0,0,"",""
904,27772568,0,0,0,0,0,0,0,0,0,0,0,0,0,0,1000,0,0,0,0,2,0,23,0,0,0,-51,-38,2077,139,137,138,139,268435457,8,0,1,1,-0.018530786965779304,0.024925664214697975,4.396484385773716,0,0,0,0,0,0,0,0,0,0,"",""
908,27773070,0,0,0,0,0,0,0,0,0,0,0,0,0,0,1000,0,0,0,0,2,0,23,0,0,0,-51,-38,2077,139,137,138,139,268435457,8,0,1,1,-0.01852953863305626,0.024923664154941853,4.396484385773716,0,0,0,0,0,0,0,0,0,0,"",""
912,27773577,0,0,0,0,0,0,0,0,0,0,0,0,0,0,1000,0,0,0,0,2,0,23,0,0,0,-51,-38,2077,139,137,138,139,268435457,8,0,1,1,-0.018528301322478076,0.02492168175446394,4.396484385773716,0,0,0,0,0,0,0,0,0,0,"",""
916,27774082,0,0,0,0,0,0,0,0,0,0,0,0,0,0,1000,0,0,0,0,2,0,23,0,0,0,-51,-38,2077,139,137,138,139,268435457,8,0,1,1,-0.018527074890399533,0.024919716783124258,4.396484385773716,0,0,0,0,0,0,0,0,0,0,"",""
920,27774584,0,0,0,0,0,0,0,0,0,0,0,0,0,0,1000,0,0,0,0,2,0,23,0,0,0,-51,-38,2078,139,137,138,139,268435457,8,0,1,1,-0.01852581276699563,0.024917706599972993,4.396484385773716,0,0,0,0,0,0,0,0,0,0,"",""
924,27775087,0,0,0,0,0,0,0,0,0,0,0,0,0,0,1000,0,0,0,0,2,0,23,0,0,0,-51,-38,2078,139,137,138,139,268435457,8,0,1,1,-0.018524561653217208,0.02491571395160737,4.396484385773716,0,0,0,0,0,0,0,0,0,0,"",""
928,27775592,0,0,0,0,0,0,0,0,0,0,0,0,0,0,1000,0,0,0,0,2,0,23,0,0,0,-51,-38,2078,139,137,138,139,268435457,8,0,1,1,-0.01852332140734504,0.024913738612317434,4.396484385773716,0,0,0,0,0,0,0,0,0,0,"",""
932,27776102,0,0,0,0,0,0,0,0,0,0,0,0,0,0,1000,0,0,0,0,2,0,23,0,0,0,-51,-38,2078,139,137,138,139,268435457,8,0,1,1,-0.018522091890081464,0.02491178036024997,4.396484385773716,0,0,0,0,0,0,0,0,0,0,"",""
936,27776607,0,0,0,0,0,0,0,0,0,0,0,0,0,0,1000,0,0,0,0,2,0,23,0,0,0,-51,-38,2078,139,137,139,139,268435457,8,0,1,1,-0.018520872964498905,0.024909838977326394,4.396484385773716,0,0,0,0,0,0,0,0,0,0,"",""
940,27777110,0,0,0,0,0,0,0,0,0,0,0,0,0,0,1000,0,0,0,0,2,0,23,0,0,0,-51,-38,2078,139,137,139,139,268435457,8,0,1,1,-0.018519664495989692,0.02490791424916288,4.396484385773716,0,0,0,0,0,0,0,0,0,0,"",""
944,27777616,0,0,0,0,0,0,0,0,0,0,0,0,0,0,1000,0,0,0,0,2,0,23,0,0,0,-51,-38,2078,138,137,139,139,268435457,8,0,1,1,-0.018518466352217093,0.024906005964992407,4.396484385773716,0,0,0,0,0,0,0,0,0,0,"",""
948,27778140,0,0,0,0,0,0,0,0,0,0,0,0,0,0,1000,0,0,0,0,2,0,23,0,0,0,-51,-38,2078,138,137,140,139,268435457,8,0,1,1,-0.01851727840306766,0.02490411391758881,4.396484385773716,0,0,0,0,0,0,0,0,0,0,"",""
952,27778645,0,0,0,0,0,0,0,0,0,0,0,0,0,0,1000,0,0,0,0,2,0,23,0,0,0,-51,-38,2078,138,137,140,139,268435457,8,0,1,1,-0.01851610052060471,0.024902237903192726,4.396484385773716,0,0,0,0,0,0,0,0,0,0,"",""
956,27779148,0,0,0,0,0,0,0,0,0,0,0,0,0,0,1000,0,0,0,0,1,0,23,0,0,0,-51,-38,2078,138,137,140,139,268435457,8,0,1,1,-0.018514932579023004,0.02490037772143942,4.396484385773716,0,0,0,0,0,0,0,0,0,0,"",""
960,27779652,0,0,0,0,0,0,0,0,0,0,0,0,0,0,1000,0,0,0,0,1,0,23,0,0,0,-51,-38,2078,137,138,140,139,268435457,8,0,1,1,-0.01851377445460455,0.024898533175288343,4.396484385773716,0,0,0,0,0,0,0,0,0,0,"",""
964,27780158,0,0,0,0,0,0,0,0,0,0,0,0,0,0,1000,0,0,0,0,1,0,23,0,0,0,-51,-38,2078,137,138,140,139,268435457,8,0,1,1,-0.018512626025675456,0.024896704070954512,4.396484385773716,0,0,0,0,0,0,0,0,0,0,"",""
968,27780794,0,0,0,0,0,0,0,0,0,0,0,0,0,0,1000,0,0,0,0,1,0,23,0,0,0,-51,-38,2078,137,137,139,139,268435457,8,0,1,1,-0.018511487172563935,0.02489489021784154,4.396484385773716,0,0,0,0,0,0,0,0,0,0,"",""
972,27781301,0,0,0,0,0,0,0,0,0,0,0,0,0,0,1000,0,0,0,0,1,0,23,0,0,0,-51,-38,2078,138,137,139,139,268435457,8,0,1,1,-0.018510357777559275,0.024893091428476306,4.396484385773716,0,0,0,0,0,0,0,0,0,0,"",""
976,27781956,0,0,0,0,0,0,0,0,0,0,0,0,0,0,1000,0,0,0,0,1,0,23,0,0,0,-51,-38,2078,138,137,139,139,268435457,8,0,1,1,-0.018509237724871806,0.02489130751844525,4.396484385773716,0,0,0,0,0,0,0,0,0,0,"",""
980,27782461,0,0,0,0,0,0,0,0,0,0,0,0,0,0,1000,0,0,0,0,1,0,23,0,0,0,-51,-38,2078,138,137,138,139,268435457,8,0,1,1,-0.018508126900593905,0.024889538306332205,4.396484385773716,0,0,0,0,0,0,0,0,0,0,"",""
984,27782969,0,0,0,0,0,0,0,0,0,0,0,0,0,0,1000,0,0,0,0,1,0,23,0,0,0,-51,-38,2078,139,137,138,139,268435457,8,0,1,1,-0.018507025192661883,0.02488778361365775,4.396484385773716,0,0,0,0,0,0,0,0,0,0,"",""
988,27783472,0,0,0,0,0,0,0,0,0,0,0,0,0,0,1000,0,0,0,0,1,0,23,0,0,0,-51,-38,2078,139,137,137,139,268435457,8,0,1,1,-0.018505932490818843,0.024886043264820006,4.396484385773716,0,0,0,0,0,0,0,0,0,0,"",""
992,27783975,0,0,0,0,0,0,0,0,0,0,0,0,0,0,1000,0,0,0,0,1,0,23,0,0,0,-51,-38,2078,139,138,137,139,268435457,8,0,1,1,-0.018504848686578396,0.024884317087036905,4.396484385773716,0,0,0,0,0,0,0,0,0,0,"",""
996,27784482,0,0,0,0,0,0,0,0,0,0,0,0,0,0,1000,0,0,0,0,1,0,23,0,0,0,-51,-38,2078,139,138,137,139,268435457,8,0,1,1,-0.01850377367318927,0.02488260491028978,4.396484385773716,0,0,0,0,0,0,0,0,0,0,"",""
1000,27784986,0,0,0,0,0,0,0,0,0,0,0,0,0,0,1000,0,0,0,0,1,0,23,0,0,0,-51,-38,2078,139,138,137,138,268435457,8,0,1,1,-0.018502707345600763,0.024880906567268355,4.396484385773716,0,0,0,0,0,0,0,0,0,0,"",""
1004,27785488,0,0,0,0,0,0,0,0,0,0,0,0,0,0,1000,0,0,0,0,1,0,23,0,0,0,-51,-38,2078,139,138,137,138,268435457,8,0,1,1,-0.018501649600429004,0.024879221893317028,4.396484385773716,0,0,0,0,0,0,0,0,0,0,"",""
1008,27785991,0,0,0,0,0,0,0,0,0,0,0,0,0,0,1000,0,0,0,0,1,0,23,0,0,0,-51,-38,2078,139,139,138,137,268435457,8,0,1,1,-0.018500600335924024,0.02487755072638242,4.396484385773716,0,0,0,0,0,0,0,0,0,0,"",""
1012,27786495,0,0,0,0,0,0,0,0,0,0,0,0,0,0,1000,0,0,0,0,1,0,23,0,0,0,-51,-38,2078,139,140,138,137,268435457,8,0,1,1,-0.018499559451937608,0.02487589290696218,4.396484385773716,0,0,0,0,0,0,0,0,0,0,"",""
1016,27787003,0,0,0,0,0,0,0,0,0,0,0,0,0,0,1000,0,0,0,0,1,0,23,0,0,0,-51,-38,2078,139,140,139,137,268435457,8,0,1,1,-0.018498526849891894,0.02487424827805495,4.396484385773716,0,0,0,0,0,0,0,0,0,0,"",""
1020,27787505,0,0,0,0,0,0,0,0,0,0,0,0,0,0,1000,0,0,0,0,1,0,23,0,0,0,-51,-38,2078,139,140,139,137,268435457,8,0,1,1,-0.018497502432748725,0.024872616685111572,4.396484385773716,0,0,0,0,0,0,0,0,0,0,"",""
1024,27788009,0,0,0,0,0,0,0,0,0,0,0,0,0,0,1000,0,0,0,0,1,0,23,0,0,0,-51,-38,2078,138,140,139,137,268435457,8,0,1,1,-0.01849648610497968,0.024870997975987377,4.396484385773716,0,0,0,0,0,0,0,0,0,0,"",""
1028,27788513,0,0,0,0,0,0,0,0,0,0,0,0,0,0,1000,0,0,0,0,1,0,23,0,0,0,-51,-38,2078,138,139,139,137,268435457,8,0,1,1,-0.018495477772536847,0.024869392000895614,4.396484385773716,0,0,0,0,0,0,0,0,0,0,"",""
1032,27789017,0,0,0,0,0,0,0,0,0,0,0,0,0,0,1000,0,0,0,0,1,0,23,0,0,0,-51,-38,2078,138,139,139,137,268435457,8,0,1,1,-0.01849447734282425,0.024867798612361932,4.396484385773716,0,0,0,0,0,0,0,0,0,0,"",""
1036,27789522,0,0,0,0,0,0,0,0,0,0,0,0,0,0,1000,0,0,0,0,1,0,23,0,0,0,-51,-38,2078,138,138,139,137,268435457,8,0,1,1,-0.018493484724669912,0.024866217665179942,4.396484385773716,0,0,0,0,0,0,0,0,0,0,"",""
1040,27790022,0,0,0,0,0,0,0,0,0,0,0,0,0,0,1000,0,0,0,0,1,0,23,0,0,0,-51,-38,2078,138,138,138,137,268435457,8,0,1,1,-0.018492499828298627,0.02486464901636776,4.396484385773716,0,0,0,0,0,0,0,0,0,0,"",""
1044,27790527,0,0,0,0,0,0,0,0,0,0,0,0,0,0,1000,0,0,0,0,1,0,23,0,0,0,-51,-38,2078,138,137,138,138,268435457,8,0,1,1,-0.01849152256530526,0.024863092525125603,4.396484385773716,0,0,0,0,0,0,0,0,0,0,"",""
1048,27791029,0,0,0,0,0,0,0,0,0,0,0,0,0,0,1000,0,0,0,0,1,0,23,0,0,0,-50,-38,2078,138,137,139,139,268435457,8,0,1,1,-0.01849055284862876,0.024859292668894317,4.396484385773716,0,0,0,0,0,0,0,0,0,0,"",""
1052,27791671,0,0,0,0,0,0,0,0,0,0,0,0,0,0,1000,0,0,0,0,1,0,23,0,0,0,-50,-38,2078,138,137,139,139,268435457,8,0,1,1,-0.01848959059252668,0.02485552204635593,4.396484385773716,0,0,0,0,0,0,0,0,0,0,"",""
1056,27792173,0,0,0,0,0,0,0,0,0,0,0,0,0,0,1000,0,0,0,0,1,0,23,0,0,0,-50,-38,2078,138,137,139,139,268435457,8,0,1,1,-0.018488635712550324,0.02485178032661328,4.396484385773716,0,0,0,0,0,0,0,0,0,0,"",""
1060,27792816,0,0,0,0,0,0,0,0,0,0,0,0,0,0,1000,0,0,0,0,1,0,23,0,0,0,-50,-38,2078,138,137,139,139,268435457,8,0,1,1,-0.018487688125520402,0.024848067183743074,4.396484385773716,0,0,0,0,0,0,0,0,0,0,"",""
1064,27793320,0,0,0,0,0,0,0,0,0,0,0,0,0,0,1000,0,0,0,0,1,0,23,0,0,0,-50,-38,2078,138,137,138,139,268435457,8,0,1,1,-0.018486747749503322,0.024844382296702845,4.396484385773716,0,0,0,0,0,0,0,0,0,0,"",""
1068,27793848,0,0,0,0,0,0,0,0,0,0,0,0,0,0,1000,0,0,0,0,1,0,23,0,0,0,-51,-38,2078,138,137,138,139,268435457,8,0,1,1,-0.018485814503787903,0.024842947224662654,4.396484385773716,0,0,0,0,0,0,0,0,0,0,"",""
1072,27794354,0,0,0,0,0,0,0,0,0,0,0,0,0,0,1000,0,0,0,0,1,0,23,0,0,0,-51,-38,2078,138,137,138,139,268435457,8,0,1,1,-0.018484888308862704,0.024841522994651893,4.396484385773716,0,0,0,0,0,0,0,0,0,0,"",""
1076,27794856,0,0,0,0,0,0,0,0,0,0,0,0,0,0,1000,0,0,0,0,1,0,23,0,0,0,-51,-38,2078,137,137,138,138,268435457,8,0,1,1,-0.018483969086393784,0.024840109486217548,4.396484385773716,0,0,0,0,0,0,0,0,0,0,"",""
1080,27795360,0,0,0,0,0,0,0,0,0,0,0,0,0,0,1000,0,0,0,0,1,0,23,0,0,0,-51,-38,2078,137,138,138,138,268435457,8,0,1,1,-0.018483056759202993,0.024838706580683823,4.396484385773716,0,0,0,0,0,0,0,0,0,0,"",""
1084,27795863,0,0,0,0,0,0,0,0,0,0,0,0,0,0,1000,0,0,0,0,1,0,23,0,0,0,-51,-39,2078,137,138,138,138,268435457,8,0,1,1,-0.018484348199741343,0.024837313152856866,4.396484385773716,0,0,0,0,0,0,0,0,0,0,"",""
1088,27796368,0,0,0,0,0,0,0,0,0,0,0,0,0,0,1000,0,0,0,0,1,0,23,0,0,0,-51,-39,2078,137,138,138,138,268435457,8,0,1,1,-0.01848563002141066,0.02483593010338129,4.396484385773716,0,0,0,0,0,0,0,0,0,0,"",""
1092,27796874,0,0,0,0,0,0,0,0,0,0,0,0,0,0,1000,0,0,0,0,1,0,23,0,0,0,-51,-39,2078,137,138,138,137,268435457,8,0,1,1,-0.01848690232951907,0.024834557318635646,4.396484385773716,0,0,0,0,0,0,0,0,0,0,"",""
1096,27797377,0,0,0,0,0,0,0,0,0,0,0,0,0,0,1000,0,0,0,0,1,0,23,0,0,0,-51,-39,2078,138,138,138,137,268435457,8,0,1,1,-0.0184881652278435,0.024833194686650545,4.396484385773716,0,0,0,0,0,0,0,0,0,0,"",""
1100,27797880,0,0,0,0,0,0,0,0,0,0,0,0,0,0,1000,0,0,0,0,1,0,23,0,0,0,-51,-39,2078,138,138,138,137,268435457,8,0,1,1,-0.018489418818657382,0.024831842097078723,4.396484385773716,0,0,0,0,0,0,0,0,0,0,"",""
1104,27798390,0,0,0,0,0,0,0,0,0,0,0,0,0,0,1000,0,0,0,0,1,0,23,0,0,0,-51,-39,2078,138,139,138,137,268435457,8,0,1,1,-0.018490663202757832,0.024830499441165818,4.396484385773716,0,0,0,0,0,0,0,0,0,0,"",""
1108,27798891,0,0,0,0,0,0,0,0,0,0,0,0,0,0,1000,0,0,0,0,2,0,23,0,0,0,-51,-39,2078,139,139,137,138,268435457,8,0,1,1,-0.018491898479492147,0.02482916661172167,4.396484385773716,0,0,0,0,0,0,0,0,0,0,"",""
1112,27799396,0,0,0,0,0,0,0,0,0,0,0,0,0,0,1000,0,0,0,0,2,0,23,0,0,0,-51,-39,2078,139,139,137,138,268435457,8,0,1,1,-0.018493124746783787,0.02482784350309234,4.396484385773716,0,0,0,0,0,0,0,0,0,0,"",""
1116,27799897,0,0,0,0,0,0,0,0,0,0,0,0,0,0,1000,0,0,0,0,2,0,23,0,0,0,-51,-39,2078,139,139,137,138,268435457,8,0,1,1,-0.018494342101157833,0.024826530011132674,4.396484385773716,0,0,0,0,0,0,0,0,0,0,"",""
1120,27800401,0,0,0,0,0,0,0,0,0,0,0,0,0,0,1000,0,0,0,0,2,0,23,0,0,0,-51,-39,2078,139,138,137,138,268435457,8,0,1,1,-0.018495550637765815,0.024825226033179458,4.396484385773716,0,0,0,0,0,0,0,0,0,0,"",""
1124,27800911,0,0,0,0,0,0,0,0,0,0,0,0,0,0,1000,0,0,0,0,2,0,23,0,0,0,-51,-40,2079,138,138,137,138,268435457,8,0,1,1,-0.01849884636286526,0.02482387750013381,4.396484385773716,0,0,0,0,0,0,0,0,0,0,"",""
1128,27801446,0,0,0,0,0,0,0,0,0,0,0,0,0,0,1000,0,0,0,0,2,0,23,0,0,0,-51,-40,2079,138,138,137,138,268435457,8,0,1,1,-0.01850211836424186,0.024822538673920546,4.396484385773716,0,0,0,0,0,0,0,0,0,0,"",""
